{"type":"FeatureCollection", "features":[
{"type":"Feature","geometry":{"type":"Point","coordinates":[29.74826847770811,-2.60526619348002]},"properties":{"OBJECTID_1":1,"objectid":29,"layer":"Sport_Sites","type":"stadium","name":"Kamena","source":"OSM","capture":"2019","created_us":null,"created_da":null,"last_edite":null,"last_edi_1":null}},
{"type":"Feature","geometry":{"type":"Point","coordinates":[29.74633509358972,-2.6075990528539705]},"properties":{"OBJECTID_1":2,"objectid":33,"layer":"Sport_Sites","type":"pitch","name":"vulgusi","source":"OSM","capture":"2019","created_us":null,"created_da":null,"last_edite":null,"last_edi_1":null}},
{"type":"Feature","geometry":{"type":"Point","coordinates":[29.74524902012621,-2.6154638237964036]},"properties":{"OBJECTID_1":3,"objectid":58,"layer":"Sport_Sites","type":"stadium","name":"Seating palce","source":"OSM","capture":"2019","created_us":null,"created_da":null,"last_edite":null,"last_edi_1":null}},
{"type":"Feature","geometry":{"type":"Point","coordinates":[29.74571664061051,-2.6157822269681787]},"properties":{"OBJECTID_1":4,"objectid":59,"layer":"Sport_Sites","type":"stadium","name":"University Stadium","source":"OSM","capture":"2019","created_us":null,"created_da":null,"last_edite":null,"last_edi_1":null}},
{"type":"Feature","geometry":{"type":"Point","coordinates":[29.74145639379759,-2.5964064521959926]},"properties":{"OBJECTID_1":5,"objectid":179,"layer":"Sport_Sites","type":"stadium","name":"Stade Huye","source":"OSM","capture":"2019","created_us":null,"created_da":null,"last_edite":null,"last_edi_1":null}},
{"type":"Feature","geometry":{"type":"Point","coordinates":[29.744823093111336,-2.6064747528075713]},"properties":{"OBJECTID_1":6,"objectid":180,"layer":"Sport_Sites","type":"stadium","name":null,"source":"OSM","capture":"2019","created_us":null,"created_da":null,"last_edite":null,"last_edi_1":null}}
]}
